[
  {
    "name": "Nova Grand - Luxury Apartments in Nellore",
    "rating": 5,
    "reviews": 12,
    "phone": "+91 99451 96777",
    "address": "Harinathpuram, Nellore, Andhra Pradesh 524003, India",
    "website": "N/A",
    "type": "Apartment building",
    "hours": "N/A",
    "thumbnail": "https://lh3.googleusercontent.com/p/AF1QipNeJGuDrFZmsGsBJp8PvsWB9K1icEgHsisbj14U=w92-h92-k-no",
    "gps_coordinates": {
      "latitude": 14.4317315,
      "longitude": 79.99102239999999
    },
    "description": "N/A",
    "service_options": "N/A"
  },
  {
    "name": "Sri Nilayam Apartments, Nellore",
    "rating": 4.3,
    "reviews": 3,
    "phone": "+91 97416 00772",
    "address": "CCS nagar, 1st St, opp. LIC, Andhra kesari Nagar, Nellore, Andhra Pradesh 524003, India",
    "website": "N/A",
    "type": "Apartment building",
    "hours": "N/A",
    "thumbnail": "https://lh3.googleusercontent.com/p/AF1QipM_aPL5YQHN_b5KiqFm6XYadJwfHH1PqYpZh1v0=w138-h92-k-no",
    "gps_coordinates": {
      "latitude": 14.429896,
      "longitude": 79.967576
    },
    "description": "N/A",
    "service_options": "N/A"
  },
  {
    "name": "Murali Krishna Apartment",
    "rating": 4.1,
    "reviews": 116,
    "phone": "N/A",
    "address": "CXPQ+2VP, Rd Number 4, Lic Colony, Harinathpuram, Nellore, Andhra Pradesh 524003, India",
    "website": "N/A",
    "type": "Apartment complex",
    "hours": "N/A",
    "thumbnail": "https://lh3.googleusercontent.com/gps-cs-s/AG0ilSztqMgEhT39wn-1yRrO5xSXPCdBDJSjiJNENnZt9mpVPc6ZOPlMiKmJIpRVjc_vuL5ERZhCo2DMb-WXKE9A6SONOsq9MdriV_Ll1R41H24y3yftot2vvQ2O4x_o6FuLdCe5f3Sz=w127-h92-k-no",
    "gps_coordinates": {
      "latitude": 14.434433799999999,
      "longitude": 79.9893187
    },
    "description": "N/A",
    "service_options": "N/A"
  },
  {
    "name": "Pavani Apartment",
    "rating": 4.2,
    "reviews": 35,
    "phone": "N/A",
    "address": "CXPG+46C, More Super Market Main Rd, Magunta Layout, Nellore, Andhra Pradesh 524003, India",
    "website": "N/A",
    "type": "Apartment building",
    "hours": "N/A",
    "thumbnail": "https://lh3.googleusercontent.com/gps-cs-s/AG0ilSwGbNCa1KihmZBPcvEfhe2VcFuZZfV-2GWYXPSm68nob8ZE4VkBXE_lCVFbnXE75_12OsJ2jWQwnWjJSzb4IXpQFz3DHvPAiYx-0XQaBFEofCc5guk_0qa78CyuWck1onRRCgCW=w138-h92-k-no",
    "gps_coordinates": {
      "latitude": 14.435322099999999,
      "longitude": 79.9755165
    },
    "description": "N/A",
    "service_options": "N/A"
  },
  {
    "name": "Leela Grandeur Apartment",
    "rating": 5,
    "reviews": 1,
    "phone": "N/A",
    "address": "Leela Grandeur, 2nd Ln, opposite to Chamundeswari apartments, Shanti Nagar, Santhi Nagar, Nellore, Andhra Pradesh 524003, India",
    "website": "N/A",
    "type": "Apartment building",
    "hours": "N/A",
    "thumbnail": "https://streetviewpixels-pa.googleapis.com/v1/thumbnail?panoid=q7x0kXuaJt6h69YT2YM0bQ&cb_client=search.gws-prod.gps&w=80&h=92&yaw=15.194308&pitch=0&thumbfov=100",
    "gps_coordinates": {
      "latitude": 14.4426925,
      "longitude": 79.9727905
    },
    "description": "N/A",
    "service_options": "N/A"
  },
  {
    "name": "Greenwoods Apartments",
    "rating": 4.4,
    "reviews": 22,
    "phone": "N/A",
    "address": "CXJ9+WV7, Kranthi Nagar, Ambedkar Nagar, Nellore, Andhra Pradesh 524003, India",
    "website": "N/A",
    "type": "Apartment building",
    "hours": "N/A",
    "thumbnail": "https://lh3.googleusercontent.com/gps-cs-s/AG0ilSzxRt6F16DT0ZWgZdt86V1pbAdcCovpEP2WdaeGjqPjuZ4B2jl98PHZgTabQO_yws2YBH7pP_BaIDfpgZN2FWOItI9Fem1dA1jjb9GsDxNByltgIXn7-2kcZtItfEh3SmoOJgvqCYspwn8t=w80-h120-k-no",
    "gps_coordinates": {
      "latitude": 14.432298999999999,
      "longitude": 79.9696756
    },
    "description": "N/A",
    "service_options": "N/A"
  },
  {
    "name": "Balaji Grand Apartment",
    "rating": 4,
    "reviews": 55,
    "phone": "+91 90525 96999",
    "address": "CXF3+574, Netaji Nagar, Nellore, Andhra Pradesh 524004, India",
    "website": "N/A",
    "type": "Apartment building",
    "hours": "N/A",
    "thumbnail": "https://lh3.googleusercontent.com/gps-cs-s/AG0ilSwbHM87PQXl9PtWEHb5vsXHOjr-Xi9gF5Ux67YbSunipX0yf8Qv0zyBqp9ARwJYKNhq3hTgDqBQPv0OSaAkeRje77aHKiS53sUJEOz90Fbm43pwo88lvBGEb78qgFjwplox-lm1EQ=w80-h106-k-no",
    "gps_coordinates": {
      "latitude": 14.422875999999999,
      "longitude": 79.95319599999999
    },
    "description": "N/A",
    "service_options": "N/A"
  },
  {
    "name": "Sunshine Apartment",
    "rating": 4.4,
    "reviews": 19,
    "phone": "N/A",
    "address": "MS Nagar, Parameshwari Nagar, Nellore, Andhra Pradesh 524001, India",
    "website": "N/A",
    "type": "Apartment building",
    "hours": "N/A",
    "thumbnail": "https://lh3.googleusercontent.com/gps-cs-s/AG0ilSx-MeassIsdjRwW7cB6VjdnXMwJHZfihn4WDWe4jhzVdTGwjfeeh3UgBfyyDCmcdavcAWo5llxJVhiGkZIyh4mjO0oALGuaVGgS7pA8XxO2hC9D_MR2BBsaX3kTpzgkkuBIaTg=w122-h92-k-no",
    "gps_coordinates": {
      "latitude": 14.4563338,
      "longitude": 79.96781849999999
    },
    "description": "N/A",
    "service_options": "N/A"
  },
  {
    "name": "Sree Renascence Apartments",
    "rating": 4,
    "reviews": 60,
    "phone": "N/A",
    "address": "Mulapet, Harinathpuram, Nellore, Andhra Pradesh 524003, India",
    "website": "https://www.facebook.com/sreerenascence",
    "type": "Apartment complex",
    "hours": "N/A",
    "thumbnail": "https://lh3.googleusercontent.com/gps-cs-s/AG0ilSxZIpvyNAGK-1VP8B0X2LTywzdK_GdpkrQTpQZvUVtUcxCtwcYrqZrbFhsGFCipusOinkIRbX5K553suwgjrn0AH8r-nMBrpH4WzFJjqXBUm0e7y4uORkb6xASEM4Ubt_TGHTac=w80-h120-k-no",
    "gps_coordinates": {
      "latitude": 14.4371063,
      "longitude": 79.9861761
    },
    "description": "N/A",
    "service_options": "N/A"
  },
  {
    "name": "Balaji Sunshine apartment",
    "rating": 4.3,
    "reviews": 57,
    "phone": "N/A",
    "address": "27/1/187/A, Laxmi Nagar, Ramji Nagar, Nellore, Andhra Pradesh 524002, India",
    "website": "N/A",
    "type": "Apartment complex",
    "hours": "N/A",
    "thumbnail": "https://lh3.googleusercontent.com/gps-cs-s/AG0ilSwPVhEh0pZO_y6hsnXhVdIr3KqvvwM20KMzDr7mzSNqqnZVMZYIrYD8CZLrjef97wRjytZE74M_y84_qMEILu55_Ugtd14Qc9ejz0WbdFCLK7vm_JLeeUi_kuWe18mbfR28MyI=w199-h92-k-no",
    "gps_coordinates": {
      "latitude": 14.443880499999999,
      "longitude": 79.9882974
    },
    "description": "N/A",
    "service_options": "N/A"
  },
  {
    "name": "JJ Service Apartments, Nellore(Exclusively for families only)",
    "rating": 4.7,
    "reviews": 74,
    "phone": "+91 93910 92298",
    "address": "Velama Sangham Street, 3rd St, RTC Quarters, Revenue Colony, Nellore, Andhra Pradesh 524004, India",
    "website": "N/A",
    "type": "Serviced accommodation",
    "hours": "N/A",
    "thumbnail": "https://lh3.googleusercontent.com/p/AF1QipMF_NYw742RInU-MT3V5qyh7HJudKGt3WUgnM4m=w80-h106-k-no",
    "gps_coordinates": {
      "latitude": 14.4220081,
      "longitude": 79.96424789999999
    },
    "description": "N/A",
    "service_options": "N/A"
  },
  {
    "name": "Sri Sai Balaji Elite Apartments",
    "rating": 4.7,
    "reviews": 7,
    "phone": "N/A",
    "address": "Usman Saheb Pet Rd, Nawabpet, Stonehouse Pet, Nellore, Andhra Pradesh 524002, India",
    "website": "N/A",
    "type": "Apartment building",
    "hours": "N/A",
    "thumbnail": "https://lh3.googleusercontent.com/p/AF1QipP5L7kdAXRfExVF2LbhBTxc_MoSVRDQye5DBKnn=w143-h92-k-no",
    "gps_coordinates": {
      "latitude": 14.454983299999999,
      "longitude": 79.9982437
    },
    "description": "N/A",
    "service_options": "N/A"
  },
  {
    "name": "M.R.M Apartment",
    "rating": 3.9,
    "reviews": 22,
    "phone": "N/A",
    "address": "F254+5J9, Lakshmi Sai Nagar, Nawabpet, Shiridi, Nellore, Andhra Pradesh 524002, India",
    "website": "N/A",
    "type": "Apartment building",
    "hours": "N/A",
    "thumbnail": "https://lh3.googleusercontent.com/gps-cs-s/AG0ilSyPR1GrsyqbInOk-DI8ghP1wZW2bP5bk3bOeTCvm5gFslwaUgUYXghl6icpfc2TVKgbpkbmtLh0-K__PkqbOvV6SwFA9xg01MRNVxZfYqeMl_fFzG1_eWYCnqracbAVzIyCEMU=w80-h97-k-no",
    "gps_coordinates": {
      "latitude": 14.4579203,
      "longitude": 80.0066141
    },
    "description": "N/A",
    "service_options": "N/A"
  },
  {
    "name": "Manasa apartments",
    "rating": 4,
    "reviews": 11,
    "phone": "N/A",
    "address": "CXXQ+P68, Ramamurthy Nagar, Nellore, Andhra Pradesh 524001, India",
    "website": "N/A",
    "type": "Apartment building",
    "hours": "N/A",
    "thumbnail": "https://streetviewpixels-pa.googleapis.com/v1/thumbnail?panoid=rp1IljPzvoEg0fvGUywVEw&cb_client=search.gws-prod.gps&w=80&h=92&yaw=114.478294&pitch=0&thumbfov=100",
    "gps_coordinates": {
      "latitude": 14.449277299999999,
      "longitude": 79.98806809999999
    },
    "description": "N/A",
    "service_options": "N/A"
  },
  {
    "name": "Moon Land Apartments",
    "rating": 4.6,
    "reviews": 8,
    "phone": "N/A",
    "address": "FX2M+9H2, VRC Centre, Nellore, Andhra Pradesh 524001, India",
    "website": "N/A",
    "type": "Apartment building",
    "hours": "N/A",
    "thumbnail": "https://lh3.googleusercontent.com/gps-cs-s/AG0ilSy6kEn8moJRHbHtUyi618ielizwvFCHQaxyXdY3qMxV2kcOftVFnVOneR6PCHoOprel9b5TVnQdR_5RQh4i14bvAT_YPIBglcLMhh2rovFtaagbyteMgtqYxBvdtkp470k_eDUSMw=w122-h92-k-no",
    "gps_coordinates": {
      "latitude": 14.4508756,
      "longitude": 79.9838912
    },
    "description": "N/A",
    "service_options": "N/A"
  },
  {
    "name": "Saptagiri Apartments",
    "rating": 4.7,
    "reviews": 3,
    "phone": "N/A",
    "address": "16-16-102, Muthukur Rd, Baba Nagar, Gundlapalem, Nellore, Andhra Pradesh 524003, India",
    "website": "N/A",
    "type": "Apartment building",
    "hours": "N/A",
    "thumbnail": "https://lh3.googleusercontent.com/gps-cs-s/AG0ilSyhYSu_A9-LqHWLrYtDqtwn9QrlRT1OtSN_ZQgWr3fNWS1phYJWpsNgPReqaNETtJq4pKopuRM_LfBVy1w2cAybiYgWdveYUpLiILzW7Km1cqErHaDrYZPI1c0f17dl1O10sbQ=w80-h106-k-no",
    "gps_coordinates": {
      "latitude": 14.4196335,
      "longitude": 80.0063065
    },
    "description": "N/A",
    "service_options": "N/A"
  },
  {
    "name": "Balaji Manor Apartment",
    "rating": 3.7,
    "reviews": 48,
    "phone": "N/A",
    "address": "24/2/1230, 24/2/1230, 3rd Cross St, Central Avenue, Ravindra Nagar, Magunta Layout, Nellore, Andhra Pradesh 524003, India",
    "website": "N/A",
    "type": "Apartment building",
    "hours": "N/A",
    "thumbnail": "https://lh3.googleusercontent.com/gps-cs-s/AG0ilSx6E71o8ez3D9pv7i-wWKgs-be29p0cnaPgwcr9JPyEXhGWzYmy2avtk8MqSkmnRlIlMRNpiSlEpXNTV3isPmlldwA1KeldENCJvwWhPt-g_RKVrmp049Ld6m-egSM-NUxzZcf8qA=w199-h92-k-no",
    "gps_coordinates": {
      "latitude": 14.434107299999999,
      "longitude": 79.9742219
    },
    "description": "N/A",
    "service_options": "N/A"
  },
  {
    "name": "Sai Enclave Apartment",
    "rating": 4.1,
    "reviews": 53,
    "phone": "N/A",
    "address": "F244+QM7, Nawabpet, Nellore, Andhra Pradesh 524002, India",
    "website": "N/A",
    "type": "Apartment building",
    "hours": "N/A",
    "thumbnail": "https://lh3.googleusercontent.com/gps-cs-s/AG0ilSxkpnPGPcMBVMSr_vF9v_t2tW0SOIIDW0d-0sTCRJD8uc2_lsCw9yBdQaOrPhJuD1HrlKRhIdmYSGbfuAOvQIXc8fug407bKv40G4w0h1jLJAsq0QDeZHtEsoQPBos-YlKBDpvj=w80-h106-k-no",
    "gps_coordinates": {
      "latitude": 14.456900599999999,
      "longitude": 80.0066567
    },
    "description": "N/A",
    "service_options": "N/A"
  },
  {
    "name": "Satya paradise Apartments",
    "rating": 5,
    "reviews": 2,
    "phone": "N/A",
    "address": "CXWX+C6Q, Balaji Nagar, Nellore, Andhra Pradesh 524002, India",
    "website": "N/A",
    "type": "Apartment building",
    "hours": "N/A",
    "thumbnail": "https://streetviewpixels-pa.googleapis.com/v1/thumbnail?panoid=qKnjyN_5vTxBRx49sOJgQA&cb_client=search.gws-prod.gps&w=80&h=92&yaw=121.93807&pitch=0&thumbfov=100",
    "gps_coordinates": {
      "latitude": 14.446098699999999,
      "longitude": 79.9980969
    },
    "description": "N/A",
    "service_options": "N/A"
  },
  {
    "name": "Santhi Apartments",
    "rating": 4.6,
    "reviews": 10,
    "phone": "N/A",
    "address": "Ambedkar Nagar, Nellore, Andhra Pradesh 524003, India",
    "website": "N/A",
    "type": "Apartment building",
    "hours": "N/A",
    "thumbnail": "https://lh3.googleusercontent.com/gps-cs-s/AG0ilSxYMv8O0KNi-hRvS49DKSO7HytQbM9acQjGk-VhU8SAsdQN1ikcApQFLnEn840YruwUMDwLAfkHaiVU_x9kknITjc7niW0TVER3A2lxbrHMY755_zCuzQib9liA5HF7-SAGUrrx=w163-h92-k-no",
    "gps_coordinates": {
      "latitude": 14.4377722,
      "longitude": 79.97059449999999
    },
    "description": "N/A",
    "service_options": "N/A"
  },
  {
    "name": "Central Residency Apartments",
    "rating": 4.5,
    "reviews": 2,
    "phone": "N/A",
    "address": "D.No.16, 1-122, Somasekara Puram, Nellore, Andhra Pradesh 524003, India",
    "website": "N/A",
    "type": "Apartment building",
    "hours": "N/A",
    "thumbnail": "https://lh3.googleusercontent.com/gps-cs-s/AG0ilSwMFEjNz5j-ps-iABDw02Q_mjK3uhjAw4rN-rdmJhR-KdfMtE77_PbIQd8uDJ65uFjJqg72pvhvtK29S2vdrGyhifKA8F0m1sltP5iMp81Z67egZ2bPltNC6vBeHNai_z7XiGTRVA=w122-h92-k-no",
    "gps_coordinates": {
      "latitude": 14.4454654,
      "longitude": 79.9831878
    },
    "description": "N/A",
    "service_options": "N/A"
  },
  {
    "name": "Pavani Pinnacle Appartments",
    "rating": 4.2,
    "reviews": 24,
    "phone": "N/A",
    "address": "first floor, Pavani pinnacle apartment, Ramji Nagar, Nellore, Andhra Pradesh 524003, India",
    "website": "N/A",
    "type": "Apartment building",
    "hours": "N/A",
    "thumbnail": "https://lh3.googleusercontent.com/gps-cs-s/AG0ilSwFvRD0xI-LeXgZ6-tFJooJl2Tw8UTXhvImP_3dCyvbg2vhGQL0Ui9xkPygVuS_TcqonU_Bz1mPea-GC_9ri89A38Qz1RNot8hLoxm2b8gKvGs3ZtQngOze_dcPui3T3TnbT8BuSg=w122-h92-k-no",
    "gps_coordinates": {
      "latitude": 14.439202199999999,
      "longitude": 79.99595219999999
    },
    "description": "N/A",
    "service_options": "N/A"
  },
  {
    "name": "RAJ HEIGHTS Apartment",
    "rating": 4.8,
    "reviews": 4,
    "phone": "N/A",
    "address": "More Super Market Main Rd, Magunta Layout, Nellore, Andhra Pradesh 524003, India",
    "website": "N/A",
    "type": "Apartment building",
    "hours": "N/A",
    "thumbnail": "https://lh3.googleusercontent.com/gps-cs-s/AG0ilSyRwJyMdQgKhMZ7ovHRqRfwXZas0TXdkgopVj20YrazXdNxmpt7XYXrlEc0IQUc-0q-Cyo-1rX21-1YTGyGMcqJ1lmBi3Z0mOyfzR3JSOLby3rgjXCRYopoBHTiDYIRRRoC4QYPAw=w138-h92-k-no",
    "gps_coordinates": {
      "latitude": 14.432951599999999,
      "longitude": 79.97775279999999
    },
    "description": "N/A",
    "service_options": "N/A"
  },
  {
    "name": "MSR HOMES Apartment",
    "rating": 4.8,
    "reviews": 4,
    "phone": "N/A",
    "address": "ISKCON City, Vanam Thopu, Nellore, Andhra Pradesh 524003, India",
    "website": "N/A",
    "type": "Apartment building",
    "hours": "N/A",
    "thumbnail": "https://lh3.googleusercontent.com/gps-cs-s/AG0ilSx7LM4h2VeEnnax23gZg2f9BuIuKs5QyrE4AUKFrC30mK9Ekm7_I1EQ2LSw3rJMI4-9kOFTTRLU6UaDRdvrgG27EIBL-eoj-Ai9CGO8hK0EXr8NccCaEGRE4Bo-FHlJT_7C8Ls=w140-h92-k-no",
    "gps_coordinates": {
      "latitude": 14.4267895,
      "longitude": 79.9806253
    },
    "description": "N/A",
    "service_options": "N/A"
  },
  {
    "name": "Dream Park Apartment",
    "rating": 5,
    "reviews": 2,
    "phone": "N/A",
    "address": "27-4-810, Laxmi Nagar, Ramji Nagar, Nellore, Andhra Pradesh 524002, India",
    "website": "N/A",
    "type": "Apartment building",
    "hours": "N/A",
    "thumbnail": "https://streetviewpixels-pa.googleapis.com/v1/thumbnail?panoid=CNuLgqdn7Rm74Z5eqNZjAw&cb_client=search.gws-prod.gps&w=80&h=92&yaw=152.75436&pitch=0&thumbfov=100",
    "gps_coordinates": {
      "latitude": 14.4446674,
      "longitude": 79.9935106
    },
    "description": "N/A",
    "service_options": "N/A"
  },
  {
    "name": "Serene Woods Apartments",
    "rating": 4,
    "reviews": 10,
    "phone": "N/A",
    "address": "CXGJ+7G5, ISKCON City, Vanam Thopu, Nellore, Andhra Pradesh 524004, India",
    "website": "N/A",
    "type": "Apartment building",
    "hours": "N/A",
    "thumbnail": "https://lh3.googleusercontent.com/gps-cs-s/AG0ilSyPBQnenILwM40GwaJq65l4MGEEfmfHGQH_IgeCZgvIJdtKWambTvea2XlrFJwx5E3p27Dv0VstULtcUeQYf_ucR836dhq8Svk_4383jHBamgdSobSS45Um1A8Ruy4tNZIARKIAXA=w80-h106-k-no",
    "gps_coordinates": {
      "latitude": 14.4256455,
      "longitude": 79.9813509
    },
    "description": "N/A",
    "service_options": "N/A"
  },
  {
    "name": "Haritha Apartments",
    "rating": 4.6,
    "reviews": 5,
    "phone": "N/A",
    "address": "CXXP+8R9, Balavil Nagar, Ramamurthy Nagar, Nellore, Andhra Pradesh 524003, India",
    "website": "N/A",
    "type": "Apartment building",
    "hours": "N/A",
    "thumbnail": "https://streetviewpixels-pa.googleapis.com/v1/thumbnail?panoid=9nLJTECneH8BXARsGgPT7g&cb_client=search.gws-prod.gps&w=80&h=92&yaw=97.00866&pitch=0&thumbfov=100",
    "gps_coordinates": {
      "latitude": 14.4482815,
      "longitude": 79.98710439999999
    },
    "description": "N/A",
    "service_options": "N/A"
  },
  {
    "name": "DG Royal Empire Apartments",
    "rating": 5,
    "reviews": 1,
    "phone": "N/A",
    "address": "CXXJ+667, Vidya Mahal Center, Nellore, Andhra Pradesh 524003, India",
    "website": "N/A",
    "type": "Apartment building",
    "hours": "N/A",
    "thumbnail": "https://streetviewpixels-pa.googleapis.com/v1/thumbnail?panoid=HdG2f4Q0w8ScBFdoMpMZHA&cb_client=search.gws-prod.gps&w=80&h=92&yaw=107.0107&pitch=0&thumbfov=100",
    "gps_coordinates": {
      "latitude": 14.448034999999999,
      "longitude": 79.980542
    },
    "description": "N/A",
    "service_options": "N/A"
  },
  {
    "name": "BHAVANI Sky Towers",
    "rating": 4.2,
    "reviews": 34,
    "phone": "+91 95054 00400",
    "address": "Main Road, ISKCON City, Kondayapalem, Nellore, Andhra Pradesh 524004, India",
    "website": "https://skytowers.bhavaniproperties.in/",
    "type": "Apartment building",
    "hours": "N/A",
    "thumbnail": "https://lh3.googleusercontent.com/p/AF1QipMgOd5yb7ssM6D1VHlWSbeoansvVL67sR_l3eS8=w153-h92-k-no",
    "gps_coordinates": {
      "latitude": 14.410464,
      "longitude": 79.9741848
    },
    "description": "N/A",
    "service_options": "N/A"
  },
  {
    "name": "Sarovar Apartments",
    "rating": 4.3,
    "reviews": 3,
    "phone": "N/A",
    "address": "16-1-204, Jubilee Hospital St, Tekkemitta, Somasekara Puram, Nellore, Andhra Pradesh 524003, India",
    "website": "N/A",
    "type": "Apartment building",
    "hours": "N/A",
    "thumbnail": "https://streetviewpixels-pa.googleapis.com/v1/thumbnail?panoid=DIftpiOS7wxVdRRB_chxpA&cb_client=search.gws-prod.gps&w=80&h=92&yaw=158.60916&pitch=0&thumbfov=100",
    "gps_coordinates": {
      "latitude": 14.443090399999999,
      "longitude": 79.9805227
    },
    "description": "N/A",
    "service_options": "N/A"
  },
  {
    "name": "Sanjeev homes apartment",
    "rating": 4.5,
    "reviews": 2,
    "phone": "N/A",
    "address": "CXCC+55P, Bhakthavatsala Nagar, Nellore, Andhra Pradesh 524004, India",
    "website": "N/A",
    "type": "Apartment building",
    "hours": "N/A",
    "thumbnail": "https://streetviewpixels-pa.googleapis.com/v1/thumbnail?panoid=LRAc7I3isPZ0P_f_bk4how&cb_client=search.gws-prod.gps&w=80&h=92&yaw=90.952324&pitch=0&thumbfov=100",
    "gps_coordinates": {
      "latitude": 14.420472499999999,
      "longitude": 79.9704489
    },
    "description": "N/A",
    "service_options": "N/A"
  },
  {
    "name": "Promod Apartments",
    "rating": 5,
    "reviews": 1,
    "phone": "N/A",
    "address": "Pramod Apartments, Kondayapalem, Nellore, Andhra Pradesh 524004, India",
    "website": "N/A",
    "type": "Apartment building",
    "hours": "N/A",
    "thumbnail": "https://lh3.googleusercontent.com/gps-cs-s/AG0ilSxQn16ng9pLC7d8e8NNrg2z-XTsmSOE102ef9WrTdPitYPDlafo8m45ktV4fW6_Wmzq2gpKQv-KOYxaNeBEOjXsiHoaZQEQtXoDmW-F6jsdG058sJGwSyNCz6t2TW-eMTjoj718vQ=w80-h160-k-no",
    "gps_coordinates": {
      "latitude": 14.409321799999999,
      "longitude": 79.968588
    },
    "description": "N/A",
    "service_options": "N/A"
  },
  {
    "name": "Sri Surya Platinum Apartment",
    "rating": 5,
    "reviews": 6,
    "phone": "N/A",
    "address": "2nd right street, Gomathi nagar, Magunta Layout, Nellore, Andhra Pradesh 524003, India",
    "website": "N/A",
    "type": "Apartment building",
    "hours": "N/A",
    "thumbnail": "https://lh3.googleusercontent.com/p/AF1QipMpKx4TuIiBSHdTS3i6faTWWe-bf-Qw_n3gOIGW=w127-h92-k-no",
    "gps_coordinates": {
      "latitude": 14.4312756,
      "longitude": 79.97946069999999
    },
    "description": "N/A",
    "service_options": "N/A"
  },
  {
    "name": "Sai Deevena Apartments",
    "rating": 4.4,
    "reviews": 9,
    "phone": "N/A",
    "address": "4-708, Usman Saheb Pet Rd, Saraswathi Nagar, Nellore, Andhra Pradesh 524002, India",
    "website": "N/A",
    "type": "Apartment building",
    "hours": "N/A",
    "thumbnail": "https://streetviewpixels-pa.googleapis.com/v1/thumbnail?panoid=x-gXEb8aXwlXBV9YXrZeFg&cb_client=search.gws-prod.gps&w=80&h=92&yaw=174.38493&pitch=0&thumbfov=100",
    "gps_coordinates": {
      "latitude": 14.4542225,
      "longitude": 79.9981707
    },
    "description": "N/A",
    "service_options": "N/A"
  },
  {
    "name": "Sri Surya Prime Apartment",
    "rating": 5,
    "reviews": 6,
    "phone": "N/A",
    "address": "5th Street, Mini Bypass Road, near Surya Platinum, Gomati Nagar, Nellore, Andhra Pradesh 524003, India",
    "website": "N/A",
    "type": "Apartment building",
    "hours": "N/A",
    "thumbnail": "https://lh3.googleusercontent.com/p/AF1QipN-wx-UmrxMb5-3JksJk1sk2bFZMvWOqHf92xdC=w94-h92-k-no",
    "gps_coordinates": {
      "latitude": 14.431687,
      "longitude": 79.98104599999999
    },
    "description": "N/A",
    "service_options": "N/A"
  },
  {
    "name": "Nalanda Apartments",
    "rating": 4.1,
    "reviews": 7,
    "phone": "N/A",
    "address": "Nalanda Apartment, Chiru Apartment To Magunta Layout, Somasekara Puram, Nellore, Andhra Pradesh 524003, India",
    "website": "N/A",
    "type": "Apartment building",
    "hours": "N/A",
    "thumbnail": "https://lh3.googleusercontent.com/gps-cs-s/AG0ilSzJdGkMGvcGOgrbBsVoqm8_bk5xkEEodlKxBRYCPB-FifVusE_GuSeZt8tJU-hletkmOMrIkTXc9dO3USqDnoob_-x2j5WKNDsKBEXvHUtO4ZuQzuk8qTAHK_secJSC0mlgp8xxqA=w80-h106-k-no",
    "gps_coordinates": {
      "latitude": 14.4384021,
      "longitude": 79.9756487
    },
    "description": "N/A",
    "service_options": "N/A"
  },
  {
    "name": "KINNERA BLISS",
    "rating": 5,
    "reviews": 4,
    "phone": "N/A",
    "address": "C2W2+6H8, RK Nagar, Balaji Nagar, Nellore, Andhra Pradesh 524002, India",
    "website": "N/A",
    "type": "Apartment building",
    "hours": "N/A",
    "thumbnail": "https://lh3.googleusercontent.com/gps-cs-s/AG0ilSzSgIkpjxVN4ET1Fqax2Q55ErPuef6KZl3sjH9G4LO_y8NGyTZ0FF7sT0WvHpp1WeZ2irZA6nnLpHL2sYJL_It2CxncTbH3pnWDTTZN8-tSlReIzTWw2o4vX0QGcgnZ27fnQBei=w92-h92-k-no",
    "gps_coordinates": {
      "latitude": 14.445535699999999,
      "longitude": 80.0014575
    },
    "description": "N/A",
    "service_options": "N/A"
  },
  {
    "name": "Pavani County Apartments",
    "rating": 3.9,
    "reviews": 12,
    "phone": "N/A",
    "address": "CXRV+798, 7th St, Ramji Nagar, Nellore, Ramji Nagar, Nellore, Andhra Pradesh 524003, India",
    "website": "N/A",
    "type": "Apartment building",
    "hours": "N/A",
    "thumbnail": "https://lh3.googleusercontent.com/gps-cs-s/AG0ilSxu0eRJInjYc8Psjsw77eNmCreXicD89WQf9odt4tGUaiKGNB2UY2nXi4zqtnULJf3avtVc6aQ8q52vHrMajTybyx4-G3ZFod2rpYeJcFG0_soaC1qczJAviYq9RqpjpN1yaL5h=w80-h106-k-no",
    "gps_coordinates": {
      "latitude": 14.4406637,
      "longitude": 79.9934431
    },
    "description": "N/A",
    "service_options": "N/A"
  },
  {
    "name": "Brindavanam Apartments",
    "rating": 5,
    "reviews": 2,
    "phone": "N/A",
    "address": "Nethaji Nagar 8th St, New SBI Colony, Netaji Nagar, Nellore, Andhra Pradesh 524004, India",
    "website": "N/A",
    "type": "Apartment building",
    "hours": "N/A",
    "thumbnail": "https://streetviewpixels-pa.googleapis.com/v1/thumbnail?panoid=a990kwMzink8pUGpu-j5PQ&cb_client=search.gws-prod.gps&w=80&h=92&yaw=326.61993&pitch=0&thumbfov=100",
    "gps_coordinates": {
      "latitude": 14.4190516,
      "longitude": 79.95185699999999
    },
    "description": "N/A",
    "service_options": "N/A"
  },
  {
    "name": "Sree Chakra Apartments",
    "rating": 4.3,
    "reviews": 11,
    "phone": "N/A",
    "address": "F286+M5P, Prasanth Nagar Road, Ram Nagar, Kisan Nagar, Nellore, Andhra Pradesh 524002, India",
    "website": "N/A",
    "type": "Apartment building",
    "hours": "N/A",
    "thumbnail": "https://lh3.googleusercontent.com/gps-cs-s/AG0ilSxgBakgYAjxc3r4yG4Dp82ccNgEfGtkBg1YzBzCpAZM0EnwtYxng7Zc2z4VLKIQInL1-NUdhnqdxCUi3GJDT7QEc2T19ixvJop20bCd7Ru90fysC9PBcsMHBOmDoR2ihgr6QUbRnw=w80-h106-k-no",
    "gps_coordinates": {
      "latitude": 14.4667069,
      "longitude": 80.0104549
    },
    "description": "N/A",
    "service_options": "N/A"
  },
  {
    "name": "Opposite Ushodaya Apartment",
    "rating": 4.3,
    "reviews": 7,
    "phone": "N/A",
    "address": "27/4/1035, Balaji Nagar, Nellore, Andhra Pradesh 524002, India",
    "website": "N/A",
    "type": "Apartment building",
    "hours": "N/A",
    "thumbnail": "https://lh3.googleusercontent.com/gps-cs-s/AG0ilSyq69Evg3VDB_N-TlsVIOHQTg3WpIhquD9oKeDaNStZ6YlKUC1RA-WTRZ1PI_iYXTG8Ldrrf5Nvlh43kLfL7UW63DcKXBtrlQ3ijEyJtN9S_Sne_4_SF7JGWD7D3c1ZdjxeaPB9=w122-h92-k-no",
    "gps_coordinates": {
      "latitude": 14.4433805,
      "longitude": 79.9972164
    },
    "description": "N/A",
    "service_options": "N/A"
  },
  {
    "name": "AR CAMELLIA APARTMENTS",
    "rating": 4.6,
    "reviews": 5,
    "phone": "N/A",
    "address": "PRASAD AVENUE STREET, POWER SUB STATION, near KONADAYAPALEM, Indira Nagar, Nellore, Andhra Pradesh 524004, India",
    "website": "N/A",
    "type": "Apartment building",
    "hours": "N/A",
    "thumbnail": "https://lh3.googleusercontent.com/gps-cs-s/AG0ilSwmPB_KjI1H3pkvAuMPFsqTK4bZwib2IUVoyXBvpo1ZM_lAvcIuBw37cr-klhW6yc6cBOE6j6xXwVUGjj0DfEo2GjMA2NGsiW8vRBufR9oP4MABOjDr2Ewm8k_OEMX8xzQRMBqL=w122-h92-k-no",
    "gps_coordinates": {
      "latitude": 14.4181771,
      "longitude": 79.9760766
    },
    "description": "N/A",
    "service_options": "N/A"
  },
  {
    "name": "Sri Sai Nidhi Apartments",
    "rating": 5,
    "reviews": 3,
    "phone": "N/A",
    "address": "Ramji Nagar, Nellore, Andhra Pradesh 524002, India",
    "website": "N/A",
    "type": "Apartment building",
    "hours": "N/A",
    "thumbnail": "https://lh3.googleusercontent.com/gps-cs-s/AG0ilSxevrWRMbKfAvobNsPOre1871NPSSsFQQuGO9ceD_yXWjCo89YQWFepmTWrRRcvr45dxmj9ikPnT2ZyIDNcE0rhodwXrMqLCLVky8ImzYvprAsprmd7QdiNyIwbGN4tUnxGZ855=w122-h92-k-no",
    "gps_coordinates": {
      "latitude": 14.444299299999999,
      "longitude": 79.9930708
    },
    "description": "N/A",
    "service_options": "N/A"
  },
  {
    "name": "Ganga Apartments",
    "rating": 4,
    "reviews": 2,
    "phone": "N/A",
    "address": "Highway Avenue Apartment Complex, Alahari Nagar, Chintareddy Palem, Nellore, Andhra Pradesh 524003, India",
    "website": "N/A",
    "type": "Apartment building",
    "hours": "N/A",
    "thumbnail": "https://streetviewpixels-pa.googleapis.com/v1/thumbnail?panoid=NIlic9FryNJ7HTiluGI_Gg&cb_client=search.gws-prod.gps&w=80&h=92&yaw=260.33194&pitch=0&thumbfov=100",
    "gps_coordinates": {
      "latitude": 14.4353448,
      "longitude": 80.00027829999999
    },
    "description": "N/A",
    "service_options": "N/A"
  },
  {
    "name": "C.B.C Plaza",
    "rating": 4.4,
    "reviews": 29,
    "phone": "N/A",
    "address": "Prakash Nagar, Pappula Veedhi, Nellore, Andhra Pradesh 524002, India",
    "website": "N/A",
    "type": "Apartment building",
    "hours": "N/A",
    "thumbnail": "https://lh3.googleusercontent.com/gps-cs-s/AG0ilSz2MnLB5LSO7G2cLv89HeQWgd2UO-R06qZrtMlDDpUKXyBSMJxXhnDDhBhYSSmMVzBTijmqDxBIhm0aA7EiEJmNH4SjNlq1s_mjKMe4xyJDFaAUJlxHbf28HqgNNOB4CdsMEmpy=w204-h92-k-no",
    "gps_coordinates": {
      "latitude": 14.461006699999999,
      "longitude": 79.99113659999999
    },
    "description": "N/A",
    "service_options": "N/A"
  },
  {
    "name": "Chinnis Green Terraces Apartments",
    "rating": 5,
    "reviews": 2,
    "phone": "N/A",
    "address": "CXXQ+4VG, Ramji Nagar, Nellore, Andhra Pradesh 524002, India",
    "website": "N/A",
    "type": "Apartment building",
    "hours": "N/A",
    "thumbnail": "https://lh3.googleusercontent.com/gps-cs-s/AG0ilSylzQtLENPFFpiLolcKV7A7zJx6YE-VoLjm8waJL5yIo598WKDOnB7htWWDufGCoObByLfnTe10kExCKi8hJJBQHUcHV5KoWeV5HeaDE_HMWOZczxZhXv5T6agtrvLmflv_G3PzLwFMCoE=w194-h92-k-no",
    "gps_coordinates": {
      "latitude": 14.4473565,
      "longitude": 79.98966709999999
    },
    "description": "N/A",
    "service_options": "N/A"
  },
  {
    "name": "Sree Nivas Apartments",
    "rating": 5,
    "reviews": 1,
    "phone": "N/A",
    "address": "CXGH+5QJ, 7th Cross Rd, ISKCON City, Vanam Thopu, Nellore, Andhra Pradesh 524004, India",
    "website": "N/A",
    "type": "Apartment building",
    "hours": "N/A",
    "thumbnail": "https://streetviewpixels-pa.googleapis.com/v1/thumbnail?panoid=gZTnInf-uKJvaXXf-K-jHA&cb_client=search.gws-prod.gps&w=80&h=92&yaw=285.67496&pitch=0&thumbfov=100",
    "gps_coordinates": {
      "latitude": 14.4254654,
      "longitude": 79.9794062
    },
    "description": "N/A",
    "service_options": "N/A"
  },
  {
    "name": "SVS Elite apartments",
    "rating": 5,
    "reviews": 1,
    "phone": "N/A",
    "address": "CXV9+HR3, Batwadipalem, Nellore, Andhra Pradesh 524003, India",
    "website": "N/A",
    "type": "Apartment building",
    "hours": "N/A",
    "thumbnail": "https://streetviewpixels-pa.googleapis.com/v1/thumbnail?panoid=P23HnQCEyqv2oCkgeXU32w&cb_client=search.gws-prod.gps&w=80&h=92&yaw=93.5811&pitch=0&thumbfov=100",
    "gps_coordinates": {
      "latitude": 14.4438947,
      "longitude": 79.9695443
    },
    "description": "N/A",
    "service_options": "N/A"
  },
  {
    "name": "Panchavati apartments",
    "rating": 5,
    "reviews": 2,
    "phone": "N/A",
    "address": "CXJF+WQC, Central Avenue, Magunta Layout, Nellore, Andhra Pradesh 524003, India",
    "website": "N/A",
    "type": "Apartment building",
    "hours": "N/A",
    "thumbnail": "https://streetviewpixels-pa.googleapis.com/v1/thumbnail?panoid=-4X9yiBsA61mbfWItZy37A&cb_client=search.gws-prod.gps&w=80&h=92&yaw=238.47276&pitch=0&thumbfov=100",
    "gps_coordinates": {
      "latitude": 14.432319999999999,
      "longitude": 79.9743798
    },
    "description": "N/A",
    "service_options": "N/A"
  },
  {
    "name": "LEGEND VILLA APARTMENTS",
    "rating": 5,
    "reviews": 1,
    "phone": "N/A",
    "address": "CX89+MVV, Sanghamitra School St, Bhakthavatsala Nagar, Nellore, Andhra Pradesh 524004, India",
    "website": "N/A",
    "type": "Apartment building",
    "hours": "N/A",
    "thumbnail": "https://streetviewpixels-pa.googleapis.com/v1/thumbnail?panoid=PRYBF_-pL8eR8IV3sGznMg&cb_client=search.gws-prod.gps&w=80&h=92&yaw=358.89713&pitch=0&thumbfov=100",
    "gps_coordinates": {
      "latitude": 14.416735399999999,
      "longitude": 79.9696688
    },
    "description": "N/A",
    "service_options": "N/A"
  },
  {
    "name": "Skyline Towers Apartment",
    "rating": 3.7,
    "reviews": 11,
    "phone": "N/A",
    "address": "CXQQ+GRX, Muthukur Road, 4th Ln, Harinathpuram, Nellore, Andhra Pradesh 524003, India",
    "website": "N/A",
    "type": "Apartment building",
    "hours": "N/A",
    "thumbnail": "https://lh3.googleusercontent.com/gps-cs-s/AG0ilSxurE54F-15tYXA1dcgo4CPDJpLdrDad6D3jKXp_qgW_FI1d_HxinluRNsBtdK4jbeaj7pGB_BemL2vSZ7WztDimAEx_Ed7I_2xxX4qIuVR9gGRWJl71w59glaYFD9jHE1_XvWNRA=w138-h92-k-no",
    "gps_coordinates": {
      "latitude": 14.438849999999999,
      "longitude": 79.9896102
    },
    "description": "N/A",
    "service_options": "N/A"
  },
  {
    "name": "RAINBOW VISTA APARTMENTS",
    "rating": 5,
    "reviews": 1,
    "phone": "N/A",
    "address": "Shridi Sai nagar, green field homes, 5th line, Nellore, Andhra Pradesh 524003, India",
    "website": "N/A",
    "type": "Apartment building",
    "hours": "N/A",
    "thumbnail": "https://lh3.googleusercontent.com/gps-cs-s/AG0ilSyIf30SE3gtfm3nVC75xqL23taLYebr2MEXpZXFLdwYnw9a-hA_J-VOekIR3srKJXxczcBXLfWzqQtrxzg4mRgAC2783Ft-lvKF_zr2vPcGd-4DHE6HxB0y79TdGA6iEJ3oTtzw8F0Vs1w=w80-h106-k-no",
    "gps_coordinates": {
      "latitude": 14.4107685,
      "longitude": 79.9775885
    },
    "description": "N/A",
    "service_options": "N/A"
  },
  {
    "name": "Pavani Vista",
    "rating": 4.3,
    "reviews": 6,
    "phone": "N/A",
    "address": "Survey No.808, Plot No.14, Jagadesh Nagar, Street, No.7, Childrens Park Rd, Ramji Nagar, Nellore, Andhra Pradesh 524002, India",
    "website": "N/A",
    "type": "Apartment building",
    "hours": "N/A",
    "thumbnail": "https://lh3.googleusercontent.com/p/AF1QipNHh_x4uAb_bmI9akz-rYbLMaEAZxwYgXSrKWPy=w143-h92-k-no",
    "gps_coordinates": {
      "latitude": 14.4392876,
      "longitude": 79.9990424
    },
    "description": "N/A",
    "service_options": "N/A"
  },
  {
    "name": "Pavani supreme appartment",
    "rating": 3.8,
    "reviews": 19,
    "phone": "N/A",
    "address": "16-15-982, Muthukur Rd, Laxmi Nagar, Ramji Nagar, Nellore, Andhra Pradesh 524003, India",
    "website": "N/A",
    "type": "Apartment building",
    "hours": "N/A",
    "thumbnail": "https://lh3.googleusercontent.com/gps-cs-s/AG0ilSzfdYVAZVYNVR6hAMsYKxx94jxbNU-g35dEPCTAZXHK29bA0bo__PyJScxoYoG1CLSMiPgUXEm7I52LcuZgM_9x9pnQjlDZZYUZe8rhy0fF5MISdyoLfRgipwN8utwIXIoHl6F4iQ=w80-h177-k-no",
    "gps_coordinates": {
      "latitude": 14.439046,
      "longitude": 79.9915728
    },
    "description": "N/A",
    "service_options": "N/A"
  },
  {
    "name": "ssr residency",
    "rating": 4.2,
    "reviews": 10,
    "phone": "N/A",
    "address": "Back side balasubramanyam park, Balaji Nagar, Nellore, Andhra Pradesh 524002, India",
    "website": "N/A",
    "type": "Apartment building",
    "hours": "N/A",
    "thumbnail": "https://lh3.googleusercontent.com/gps-cs-s/AG0ilSyg8Jnokxc2l8wMIxTUMghzAXl8O5OQWUaalCis5LFnr4LS1RB4MUnsypNtIVTAx6l6N-XXtovJiYaaeQ41bekfY82ByiRSfhZS8OKJsDlfGRhS8ncaXDUTMyVITcs1xLFJ_d-k=w80-h106-k-no",
    "gps_coordinates": {
      "latitude": 14.4463843,
      "longitude": 79.9892127
    },
    "description": "N/A",
    "service_options": "N/A"
  },
  {
    "name": "West gate apartments",
    "rating": 5,
    "reviews": 1,
    "phone": "N/A",
    "address": "CX72+25M, LLF School Rd, Mahathma Gandhi Nagar, Nellore, Andhra Pradesh 524004, India",
    "website": "N/A",
    "type": "Apartment building",
    "hours": "N/A",
    "thumbnail": "https://lh3.googleusercontent.com/gps-cs-s/AG0ilSwc2ywrJ8a10yJY0wMGxMRe7rCjOCncy-uYCJPhjsgJ8V_53UJ_7gOHoIhicjrHYDCodj9MkRF2VVt9yD8WFwhpsof00CRcojOQGfMDK9ZZ6xL5aZtusoIzXlKffqXN9PMpG1eK=w80-h142-k-no",
    "gps_coordinates": {
      "latitude": 14.4125825,
      "longitude": 79.950434
    },
    "description": "N/A",
    "service_options": "N/A"
  },
  {
    "name": "Sai Deep Apartment",
    "rating": 3.8,
    "reviews": 12,
    "phone": "N/A",
    "address": "24-6-123, Podalakur Rd, Saraswathi Nagar, Dargamitta, Ambedkar Nagar, Nellore, Andhra Pradesh 524003, India",
    "website": "N/A",
    "type": "Apartment building",
    "hours": "N/A",
    "thumbnail": "https://streetviewpixels-pa.googleapis.com/v1/thumbnail?panoid=KSuywGMfGT6ZKJD6dEqjlQ&cb_client=search.gws-prod.gps&w=80&h=92&yaw=312.2329&pitch=0&thumbfov=100",
    "gps_coordinates": {
      "latitude": 14.433470699999999,
      "longitude": 79.9707273
    },
    "description": "N/A",
    "service_options": "N/A"
  },
  {
    "name": "Samatha Apartments",
    "rating": 4.5,
    "reviews": 2,
    "phone": "N/A",
    "address": "FX2R+592, Ramji Nagar, Nellore, Andhra Pradesh 524002, India",
    "website": "N/A",
    "type": "Apartment building",
    "hours": "N/A",
    "thumbnail": "https://streetviewpixels-pa.googleapis.com/v1/thumbnail?panoid=SVy3mh-OT_oQ29R7Uy2XlA&cb_client=search.gws-prod.gps&w=80&h=92&yaw=260.83954&pitch=0&thumbfov=100",
    "gps_coordinates": {
      "latitude": 14.450383299999999,
      "longitude": 79.9908968
    },
    "description": "N/A",
    "service_options": "N/A"
  },
  {
    "name": "MARVEL MANSION APARTMENT",
    "rating": 5,
    "reviews": 4,
    "phone": "N/A",
    "address": "CXH7+XM8, Unnamed Road, JVR Colony, Sujathamma Colony, Dargamitta, Nellore, Andhra Pradesh 524003, India",
    "website": "N/A",
    "type": "Apartment building",
    "hours": "N/A",
    "thumbnail": "https://streetviewpixels-pa.googleapis.com/v1/thumbnail?panoid=fIKCXoITv9WDC9ebFeu9xA&cb_client=search.gws-prod.gps&w=80&h=92&yaw=357.6206&pitch=0&thumbfov=100",
    "gps_coordinates": {
      "latitude": 14.429924199999999,
      "longitude": 79.9642025
    },
    "description": "N/A",
    "service_options": "N/A"
  },
  {
    "name": "C & B Apartments",
    "rating": 5,
    "reviews": 2,
    "phone": "N/A",
    "address": "CXPC+XCF, Saraswathi Nagar, Ambedkar Nagar, Nellore, Andhra Pradesh 524003, India",
    "website": "N/A",
    "type": "Apartment building",
    "hours": "N/A",
    "thumbnail": "https://streetviewpixels-pa.googleapis.com/v1/thumbnail?panoid=p9iYojSy6Q1bX2zFOLM0SA&cb_client=search.gws-prod.gps&w=80&h=92&yaw=138.78735&pitch=0&thumbfov=100",
    "gps_coordinates": {
      "latitude": 14.437437099999999,
      "longitude": 79.9710568
    },
    "description": "N/A",
    "service_options": "N/A"
  },
  {
    "name": "C & B Apartments",
    "rating": 5,
    "reviews": 2,
    "phone": "N/A",
    "address": "CXPC+XCF, Saraswathi Nagar, Ambedkar Nagar, Nellore, Andhra Pradesh 524003, India",
    "website": "N/A",
    "type": "Apartment building",
    "hours": "N/A",
    "thumbnail": "https://streetviewpixels-pa.googleapis.com/v1/thumbnail?panoid=p9iYojSy6Q1bX2zFOLM0SA&cb_client=search.gws-prod.gps&w=80&h=92&yaw=138.78735&pitch=0&thumbfov=100",
    "gps_coordinates": {
      "latitude": 14.437437099999999,
      "longitude": 79.9710568
    },
    "description": "N/A",
    "service_options": "N/A"
  },
  {
    "name": "Bhavani Park City",
    "rating": 4.2,
    "reviews": 19,
    "phone": "N/A",
    "address": "Royal Empire Apartments, Ramji Nagar, Nellore, Ramji Nagar, Nellore, Andhra Pradesh 524002, India",
    "website": "N/A",
    "type": "Apartment complex",
    "hours": "N/A",
    "thumbnail": "https://lh3.googleusercontent.com/gps-cs-s/AG0ilSysKOOuv7mHu61nyDKMQDcUHN_NmkG7dFh3wb1PybAXJH5BFz81rdWBpijeOGDSWNOX2aGE5C5wW8NQnOHtqZj-Bhjeji4dda26dytkLn4dGFOfcWfLB88dXg8JMnKZQEYnn2wzCg=w92-h92-k-no",
    "gps_coordinates": {
      "latitude": 14.44141,
      "longitude": 79.9930507
    },
    "description": "N/A",
    "service_options": "N/A"
  },
  {
    "name": "Trishul Apartments",
    "rating": 5,
    "reviews": 2,
    "phone": "N/A",
    "address": "CXFH+J32, 2nd Cross Rd, ISKCON City, Vanam Thopu, Nellore, Andhra Pradesh 524004, India",
    "website": "N/A",
    "type": "Apartment building",
    "hours": "N/A",
    "thumbnail": "https://lh3.googleusercontent.com/gps-cs-s/AG0ilSyO3VjyewxW4sLXwkRRLqp1nWazltu5pPQZAwpgrGMVq1ITQHMNfcLO1CO999xn5Uaxj-JMsQc-_te112eCH3oZQ-miEbTdZBB96fp1310XNOQX5bP2lcmXbp7erb9JhZ1OlUKsAQ=w80-h106-k-no",
    "gps_coordinates": {
      "latitude": 14.424019,
      "longitude": 79.9776371
    },
    "description": "N/A",
    "service_options": "N/A"
  },
  {
    "name": "Gayatri Grandeur Apartments",
    "rating": 5,
    "reviews": 2,
    "phone": "N/A",
    "address": "CXQX+PRR, Ramji Nagar, Nellore, Andhra Pradesh 524002, India",
    "website": "N/A",
    "type": "Apartment building",
    "hours": "N/A",
    "thumbnail": "https://lh3.googleusercontent.com/gps-cs-s/AG0ilSzFiu5Kg229Lf8qHkxcMgBJHc38fHh5PR-j-PNiu9lVYYD31SihGHYx1GF4ZD24tzRaDsIZzI5wNBc6rcgDwQlsp4gAuxudc3hCUhwtUYiQxOawh89SQwU5Uxzw2xluYYK_bNu9pQ=w80-h142-k-no",
    "gps_coordinates": {
      "latitude": 14.4393581,
      "longitude": 79.9995053
    },
    "description": "N/A",
    "service_options": "N/A"
  },
  {
    "name": "KGN Apartments",
    "rating": 5,
    "reviews": 1,
    "phone": "N/A",
    "address": "18/7/152, Achari St, Kukkalagunta, VRC Centre, Nellore, Andhra Pradesh 524003, India",
    "website": "N/A",
    "type": "Apartment building",
    "hours": "N/A",
    "thumbnail": "https://streetviewpixels-pa.googleapis.com/v1/thumbnail?panoid=_GoF_5e8ixAaCXnyn3nxGA&cb_client=search.gws-prod.gps&w=80&h=92&yaw=182.14767&pitch=0&thumbfov=100",
    "gps_coordinates": {
      "latitude": 14.448322699999999,
      "longitude": 79.9790063
    },
    "description": "N/A",
    "service_options": "N/A"
  },
  {
    "name": "Anuradha Apartment",
    "rating": 4,
    "reviews": 2,
    "phone": "N/A",
    "address": "25/3/908, Podalakur Rd, New SBI Colony, Netaji Nagar, Nellore, Andhra Pradesh 524004, India",
    "website": "N/A",
    "type": "Apartment building",
    "hours": "N/A",
    "thumbnail": "https://lh3.googleusercontent.com/gps-cs-s/AG0ilSwjEj8GqGErDgXOPOsZXMt25JTZjADU089s6W9A41nKcEXUiwG7yv7iWkZ98E2uGQKCoZ5JdJ2L7AoJdFGrl_gmkqF7u_FlfrQ6zVIM-JmiGXMy3VRZbZ-jGU30MHgDhSrPXpY=w199-h92-k-no",
    "gps_coordinates": {
      "latitude": 14.4194075,
      "longitude": 79.9522411
    },
    "description": "N/A",
    "service_options": "N/A"
  },
  {
    "name": "Sree enclave apartments",
    "rating": 5,
    "reviews": 2,
    "phone": "N/A",
    "address": "Sri Enclave Apartment, Flat no 102, Chaitanyapuri Colony, Vedayapalem, LLF School Rd, Mahathma Gandhi Nagar, Nellore, Andhra Pradesh 524004, India",
    "website": "N/A",
    "type": "Apartment building",
    "hours": "N/A",
    "thumbnail": "https://lh3.googleusercontent.com/gps-cs-s/AG0ilSyjj68uSz4mVCvdvzTO9oLuE4NfRqTbDQ3HunuiAD9HLOT6Tth6mU7d0uBYUUY_8fPf7tSH4QH1qEA95BXd5RHiVbpwDxljFFQQPwtLxtOY8DGm-pilbTupCt4F63MMoQ79QUCz2Q=w80-h106-k-no",
    "gps_coordinates": {
      "latitude": 14.412604199999999,
      "longitude": 79.9509901
    },
    "description": "N/A",
    "service_options": "N/A"
  },
  {
    "name": "Sai Landmark Apartments,Putha Estates, Nellore",
    "rating": 4.9,
    "reviews": 9,
    "phone": "N/A",
    "address": "FX4C+H75, MS Nagar, Parameshwari Nagar, Nellore, Andhra Pradesh 524001, India",
    "website": "N/A",
    "type": "Apartment building",
    "hours": "N/A",
    "thumbnail": "https://lh3.googleusercontent.com/gps-cs-s/AG0ilSzdVtB5FpI3v8AQqm_BnuhQaaCSRCTjShQzcdfiNcJBrlanawkVT7I3JbPN-IPHKCIOOM28xncfpClw7rF2TnNXu-yYWya-wBKXoD9v7XJkNflyx0BErEmkO_ydO-AWVG6OMv1E=w80-h164-k-no",
    "gps_coordinates": {
      "latitude": 14.456392999999998,
      "longitude": 79.97073499999999
    },
    "description": "N/A",
    "service_options": "N/A"
  },
  {
    "name": "Madhuvani apartments",
    "rating": 3.7,
    "reviews": 7,
    "phone": "N/A",
    "address": "CXH8+R68, Sujathamma Colony, Dargamitta, Nellore, Andhra Pradesh 524003, India",
    "website": "N/A",
    "type": "Apartment building",
    "hours": "N/A",
    "thumbnail": "https://lh3.googleusercontent.com/gps-cs-s/AG0ilSzLXu-Yyyix5Fz3jXzIIAS6XqyZw-P-Jj0pE_Rx9mOxj39_nENwIvZFohW6fUis68x3_Z0loXgcaCPN_nFnmJlybzGR8NpLIy3ficYIvMKEIYBJBdMVqb2AMip0HDjo9gh-4v9_=w80-h160-k-no",
    "gps_coordinates": {
      "latitude": 14.4295406,
      "longitude": 79.9655684
    },
    "description": "N/A",
    "service_options": "N/A"
  },
  {
    "name": "Hema Sai Enclave Apartment",
    "rating": 4.3,
    "reviews": 3,
    "phone": "N/A",
    "address": "26-16-347, Jaya Lakshmi Nagar, Guduru BhaskaraRami Reddy Layout, Nellore, Andhra Pradesh 524003, India",
    "website": "N/A",
    "type": "Apartment building",
    "hours": "N/A",
    "thumbnail": "https://lh3.googleusercontent.com/gps-cs-s/AG0ilSydYTkO5PYW3XhjzAvh8yK16SH2fLO-0I3SOY_0TiQCqb1cylzaQNCaO0USTlEVy2BmzZcOj0asVI7cbmzAtjxdG7b39TLVjbwIVZ7MblVDVMU06qkmgZEguSCTNJAPTK6ebDtVXg=w80-h106-k-no",
    "gps_coordinates": {
      "latitude": 14.4304563,
      "longitude": 79.98222559999999
    },
    "description": "N/A",
    "service_options": "N/A"
  },
  {
    "name": "Sri Chiranjeevi plaza",
    "rating": 4.1,
    "reviews": 19,
    "phone": "N/A",
    "address": "Samudrrala, 501, Sri chiranjeevi plaza, Aacharya, Koneti mitta, Mulapeta, Nellore, Andhra Pradesh 524003, India",
    "website": "N/A",
    "type": "Apartment building",
    "hours": "N/A",
    "thumbnail": "https://lh3.googleusercontent.com/gps-cs-s/AG0ilSxURUnXuA5VCQ26D5QYKirdgjxMEicF3YJ5zMgsvTrCRbGCAxAjmmMOPde21WPopIjYSX2VPpczSc-BRRVUmCVChKlKq43D9N-QJO2EUa7kPNlXHVb8fONgUUb3ZnfamBiNvrEE=w122-h92-k-no",
    "gps_coordinates": {
      "latitude": 14.448174,
      "longitude": 79.9712665
    },
    "description": "N/A",
    "service_options": "N/A"
  },
  {
    "name": "Sahithi Estate 'A' Block",
    "rating": 4.2,
    "reviews": 26,
    "phone": "N/A",
    "address": "CXPF+CH4, Sahithi Estate Rd, Saraswathi Nagar, Ambedkar Nagar, Nellore, Andhra Pradesh 524003, India",
    "website": "http://www.nelloreindependenthouses.weebly.com/",
    "type": "Apartment building",
    "hours": "N/A",
    "thumbnail": "https://lh3.googleusercontent.com/gps-cs-s/AG0ilSz6TrywezdT-WvP-d8RIGCsPeYbR3ViNmPWJGMvBI2qHfu9S2FF8YGESZGY2AFcslqIwmCo1qHfaWjk9VbBQjXNWzOWq6e6Rn9LuOZTr6uD8AoK-Mh8Neiqdmea_aIsg04KHppg=w122-h92-k-no",
    "gps_coordinates": {
      "latitude": 14.4360056,
      "longitude": 79.9739577
    },
    "description": "N/A",
    "service_options": "N/A"
  },
  {
    "name": "Sai Charan Apartments",
    "rating": 4.1,
    "reviews": 14,
    "phone": "N/A",
    "address": "16-4-1304, Muthukur Rd, Baba Nagar, Gundlapalem, Nellore, Andhra Pradesh 524003, India",
    "website": "N/A",
    "type": "Apartment building",
    "hours": "N/A",
    "thumbnail": "https://lh3.googleusercontent.com/gps-cs-s/AG0ilSwW0OXHF5N8bkOO6vNWA1X_-f0mIUnUcXXpvmHeZ_8YvLC1DVnXR52OQMHcgtp-SwVxhaRlML8izJUo9DXJRqFhCy2lIStgJxLnXSazbUcL_uVVl5pcbWEuUlDid7dxwyN-LC7G=w163-h92-k-no",
    "gps_coordinates": {
      "latitude": 14.421089499999999,
      "longitude": 80.0063967
    },
    "description": "N/A",
    "service_options": "N/A"
  },
  {
    "name": "Yamuna Apartment",
    "rating": 4.6,
    "reviews": 5,
    "phone": "N/A",
    "address": "Yamuna Apartments, Highway Avenue Apartment Complex, Alahari Nagar, Chintareddy Palem, Nellore, Andhra Pradesh 524003, India",
    "website": "N/A",
    "type": "Apartment building",
    "hours": "N/A",
    "thumbnail": "https://streetviewpixels-pa.googleapis.com/v1/thumbnail?panoid=y0mm5GoBfHvIP7eYVtCqyA&cb_client=search.gws-prod.gps&w=80&h=92&yaw=224.59366&pitch=0&thumbfov=100",
    "gps_coordinates": {
      "latitude": 14.4354347,
      "longitude": 80.00027829999999
    },
    "description": "N/A",
    "service_options": "N/A"
  },
  {
    "name": "Himalaya Apartments",
    "rating": 5,
    "reviews": 2,
    "phone": "N/A",
    "address": "16-9-367/1, MuthyalaPalem, Ramalinga Puram, Nellore, Andhra Pradesh 524003, India",
    "website": "N/A",
    "type": "Apartment building",
    "hours": "N/A",
    "thumbnail": "https://streetviewpixels-pa.googleapis.com/v1/thumbnail?panoid=MtxNqrLMxVWsmxyDMS4g8g&cb_client=search.gws-prod.gps&w=80&h=92&yaw=339.4156&pitch=0&thumbfov=100",
    "gps_coordinates": {
      "latitude": 14.440261999999999,
      "longitude": 79.9829
    },
    "description": "N/A",
    "service_options": "N/A"
  },
  {
    "name": "Kaveri Apartment",
    "rating": 4.3,
    "reviews": 3,
    "phone": "N/A",
    "address": "Kaveri Apartments, Highway Avenue Apartment Complex, Alahari Nagar, Chintareddy Palem, Nellore, Andhra Pradesh 524003, India",
    "website": "N/A",
    "type": "Apartment building",
    "hours": "N/A",
    "thumbnail": "https://streetviewpixels-pa.googleapis.com/v1/thumbnail?panoid=dAyntxKibLN6_M7yQoze9g&cb_client=search.gws-prod.gps&w=80&h=92&yaw=254.94418&pitch=0&thumbfov=100",
    "gps_coordinates": {
      "latitude": 14.4352082,
      "longitude": 80.0002346
    },
    "description": "N/A",
    "service_options": "N/A"
  },
  {
    "name": "Devi Gardens Apartments",
    "rating": 5,
    "reviews": 4,
    "phone": "N/A",
    "address": "Old Judge Bungalow Area, Mulapet, Nellore, Andhra Pradesh 524003, India",
    "website": "N/A",
    "type": "Apartment building",
    "hours": "N/A",
    "thumbnail": "https://lh3.googleusercontent.com/gps-cs-s/AG0ilSxDtWvztNwarcscmNtzwK0zhVwKdHaKw3J2xZJXBUb3Z3O0YxGAKKKUGZW0bQKSWuw_xVaGSCdhaIRU7tfCnOwvsOO9YUC7G06s3rrpIDVx1juWEBvgF8krTGnoj3APP3OZLWpG=w80-h142-k-no",
    "gps_coordinates": {
      "latitude": 14.4446242,
      "longitude": 79.9689382
    },
    "description": "N/A",
    "service_options": "N/A"
  },
  {
    "name": "Sri Balaji residency apartments",
    "rating": 5,
    "reviews": 1,
    "phone": "N/A",
    "address": "No 25-3-1139, Podalakur Rd, New SBI Colony, Netaji Nagar, Nellore, Andhra Pradesh 524004, India",
    "website": "N/A",
    "type": "Apartment building",
    "hours": "N/A",
    "thumbnail": "https://streetviewpixels-pa.googleapis.com/v1/thumbnail?panoid=XJFEHb0wQxfr53sSwLlC3w&cb_client=search.gws-prod.gps&w=80&h=92&yaw=93.01468&pitch=0&thumbfov=100",
    "gps_coordinates": {
      "latitude": 14.4200447,
      "longitude": 79.9525378
    },
    "description": "N/A",
    "service_options": "N/A"
  },
  {
    "name": "Mythri Homes Apartments",
    "rating": 4.8,
    "reviews": 4,
    "phone": "N/A",
    "address": "Guduru BhaskaraRami Reddy Layout, Nellore, Andhra Pradesh 524003, India",
    "website": "N/A",
    "type": "Apartment building",
    "hours": "N/A",
    "thumbnail": "https://streetviewpixels-pa.googleapis.com/v1/thumbnail?panoid=_2Hi_ikVF6tzZXB7V9I3EA&cb_client=search.gws-prod.gps&w=80&h=92&yaw=122.34078&pitch=0&thumbfov=100",
    "gps_coordinates": {
      "latitude": 14.4301487,
      "longitude": 79.9777701
    },
    "description": "N/A",
    "service_options": "N/A"
  },
  {
    "name": "Chaitanya Sikhar Apartments",
    "rating": 5,
    "reviews": 2,
    "phone": "N/A",
    "address": "CXVQ+6F9, Beside Aditya Degree & PG College, opposite Patanjali Super Market, Andhra Pradesh 524002, India",
    "website": "N/A",
    "type": "Apartment building",
    "hours": "N/A",
    "thumbnail": "https://lh3.googleusercontent.com/gps-cs-s/AG0ilSxENcp3fZxuaFcWst1yJ78z-DLeGChL3zyu2gZFjxCWF2jYcYeWfBQve_ZLsOfWzeKE1aVZCkX-IVTyNZllzBwgpMJPGy0ztGFVaOhz0pMGUejUqqyFefDJ1H0B_n05CJKBBhU6=w80-h106-k-no",
    "gps_coordinates": {
      "latitude": 14.4430327,
      "longitude": 79.9887256
    },
    "description": "N/A",
    "service_options": "N/A"
  },
  {
    "name": "Brundavan Apartments",
    "rating": 3.7,
    "reviews": 6,
    "phone": "N/A",
    "address": "CX63+J62, Mahathma Gandhi Nagar, Nellore, Andhra Pradesh 524004, India",
    "website": "N/A",
    "type": "Apartment building",
    "hours": "N/A",
    "thumbnail": "https://lh3.googleusercontent.com/gps-cs-s/AG0ilSz03Wf13iE4pn6sIRLog9MDyGByEodL9aRxN6emGy8lDuJmC95ANQJ9WiH9LVigatyEwY1pxOKOs0WjUVOFQuOX7hDfhkODuXC7eyAZb8NeGBhrpLnWB4dT-JBiecAX7np6Sk9D=w80-h103-k-no",
    "gps_coordinates": {
      "latitude": 14.411519,
      "longitude": 79.953029
    },
    "description": "N/A",
    "service_options": "N/A"
  },
  {
    "name": "Suneetha apartment",
    "rating": 4,
    "reviews": 1,
    "phone": "N/A",
    "address": "Suneetha Apartments, Mini Bypass Road, Jamesgarden, Ramamurthy Nagar, Nellore, Andhra Pradesh 524001, India",
    "website": "N/A",
    "type": "Apartment building",
    "hours": "N/A",
    "thumbnail": "https://lh3.googleusercontent.com/gps-cs-s/AG0ilSwhlnL1yUf2yeZ2pe1WVVEeiIdUhiLVoJuE7DfUMwYO1GBO6j6fkEImAfF_Fb9IPIO5vNZf-Q0UUbulyiaDtOGEo1FvGeCDJBNbBc1XpE0JSSsLSmOAC9xm4E6WTlfTV0M-IDlIoyuHrC3h=w80-h175-k-no",
    "gps_coordinates": {
      "latitude": 14.454976199999999,
      "longitude": 79.989531
    },
    "description": "N/A",
    "service_options": "N/A"
  },
  {
    "name": "Sri Mahalakshmi MSC Apartments",
    "rating": 5,
    "reviews": 2,
    "phone": "N/A",
    "address": "FX5R+GVX, Pappula St, Pappula Veedhi, Nellore, Andhra Pradesh 524002, India",
    "website": "N/A",
    "type": "Apartment building",
    "hours": "N/A",
    "thumbnail": "https://lh3.googleusercontent.com/gps-cs-s/AG0ilSyhk0GhnWfx14lbOirgJz123z2-ihcL92xV2y4tbr7asOvBtNDv_E6T9KecKPkTAN2GXKTmHlwXJsMdUVz7MzMY_L4J9aqIb3Pd9718IBemTUf5PhMeY2tZXSQN40T6gNvmki0=w80-h164-k-no",
    "gps_coordinates": {
      "latitude": 14.4588685,
      "longitude": 79.992249
    },
    "description": "N/A",
    "service_options": "N/A"
  },
  {
    "name": "Avk Elite",
    "rating": 5,
    "reviews": 1,
    "phone": "N/A",
    "address": "Royal Empire Apartments, Ramji Nagar, Nellore, Ramji Nagar, Nellore, Andhra Pradesh 524002, India",
    "website": "N/A",
    "type": "Apartment building",
    "hours": "N/A",
    "thumbnail": "https://lh3.googleusercontent.com/gps-cs-s/AG0ilSyvHY7Hzfr9haeAbDRcjjT_QiWUrvzPCD-0igu4gtDgbnCgQKnDja_BQGLgNW-Rxj4dFS5MD7XtAtUhlYz7zwI5r292Xfo3i4CAVKMOLEEQmd_0IACJirlDyPmob5zmINVYwdUrdg=w80-h142-k-no",
    "gps_coordinates": {
      "latitude": 14.441264199999999,
      "longitude": 79.99348839999999
    },
    "description": "N/A",
    "service_options": "N/A"
  },
  {
    "name": "Sri Raaga Orchid Apartments",
    "rating": 3,
    "reviews": 1,
    "phone": "N/A",
    "address": "26-14-790, near sanghamitra school Bhaktvatsala nagar, NGO Colony, Nellore, Andhra Pradesh 524004, India",
    "website": "N/A",
    "type": "Apartment building",
    "hours": "N/A",
    "thumbnail": "https://streetviewpixels-pa.googleapis.com/v1/thumbnail?panoid=QklmHeaSQyvfbqLXKlZC8Q&cb_client=search.gws-prod.gps&w=80&h=92&yaw=51.56519&pitch=0&thumbfov=100",
    "gps_coordinates": {
      "latitude": 14.416330799999999,
      "longitude": 79.9687663
    },
    "description": "N/A",
    "service_options": "N/A"
  },
  {
    "name": "DRR APARTMENTS",
    "rating": 3.9,
    "reviews": 11,
    "phone": "N/A",
    "address": "16/1/701, Tekkemitta, Somasekara Puram, Nellore, Andhra Pradesh 524003, India",
    "website": "N/A",
    "type": "Apartment complex",
    "hours": "N/A",
    "thumbnail": "https://lh3.googleusercontent.com/gps-cs-s/AG0ilSwCX07xZ9m9pNBcjUTBjlAiIC_dcFLp2pgqReeBq3lkYSEdnrB9wLcAfdoiqD_kY7HnRvDVZG6j869peh5H21_TzZPsHhUnqLOVjnt5hhuqtrnp_SM_s_gH5Bs449mrUAB_u3MisA=w80-h142-k-no",
    "gps_coordinates": {
      "latitude": 14.444401899999999,
      "longitude": 79.9831579
    },
    "description": "N/A",
    "service_options": "N/A"
  },
  {
    "name": "Kanchi Parvatamma Apartments",
    "rating": 3,
    "reviews": 3,
    "phone": "N/A",
    "address": "F262+W92, Kummari St, Bangla Thota, Nellore, Andhra Pradesh 524002, India",
    "website": "N/A",
    "type": "Apartment building",
    "hours": "N/A",
    "thumbnail": "https://streetviewpixels-pa.googleapis.com/v1/thumbnail?panoid=TtXRzG3-8RZ9E9JBh8_PlA&cb_client=search.gws-prod.gps&w=80&h=92&yaw=214.1587&pitch=0&thumbfov=100",
    "gps_coordinates": {
      "latitude": 14.4622621,
      "longitude": 80.0008759
    },
    "description": "N/A",
    "service_options": "N/A"
  },
  {
    "name": "DRK JEWEL ROCKS",
    "rating": 4.9,
    "reviews": 9,
    "phone": "N/A",
    "address": "R R NAGAR, Bhakthavatsala Nagar, Nellore, Andhra Pradesh 524004, India",
    "website": "N/A",
    "type": "Apartment building",
    "hours": "N/A",
    "thumbnail": "https://lh3.googleusercontent.com/p/AF1QipOsM7BWuIlFrxLY3LVMcR7T5w6gvV0gLxldjdTX=w151-h92-k-no",
    "gps_coordinates": {
      "latitude": 14.413724799999999,
      "longitude": 79.9630352
    },
    "description": "N/A",
    "service_options": "N/A"
  },
  {
    "name": "CB Homes Nellore",
    "rating": 4.8,
    "reviews": 4,
    "phone": "+91 99598 84782",
    "address": "Pardhasaradhi Nagar, Nellore, Andhra Pradesh 524003, India",
    "website": "http://www.arunachalahomesnellore.blogspot.com/",
    "type": "Apartment building",
    "hours": "N/A",
    "thumbnail": "https://lh3.googleusercontent.com/gps-cs-s/AG0ilSw_YO04sA1DLeAxM5Ri0OdBiJHFeL8mMS-cxc5spaQcbBUXU_9Flnx55Gfy4UUN6CuFAfRxUawG9xOsT2Ev72cGij5w2nrp7MZ7lCQCg-l2cK1zPCjUfXBaNc9eMrRl5IA97_fz=w80-h164-k-no",
    "gps_coordinates": {
      "latitude": 14.4216236,
      "longitude": 80.0057868
    },
    "description": "N/A",
    "service_options": "N/A"
  },
  {
    "name": "Sai sudarshan apartments",
    "rating": 5,
    "reviews": 2,
    "phone": "N/A",
    "address": "FX7V+32J, Pappula Veedhi, Nellore, Andhra Pradesh 524002, India",
    "website": "N/A",
    "type": "Apartment building",
    "hours": "N/A",
    "thumbnail": "https://streetviewpixels-pa.googleapis.com/v1/thumbnail?panoid=VofsA0hElVoh0qmygw0Ukg&cb_client=search.gws-prod.gps&w=80&h=92&yaw=124.9606&pitch=0&thumbfov=100",
    "gps_coordinates": {
      "latitude": 14.4627117,
      "longitude": 79.9925241
    },
    "description": "N/A",
    "service_options": "N/A"
  },
  {
    "name": "Nanne Saheb Manzil Apartments",
    "rating": 5,
    "reviews": 2,
    "phone": "N/A",
    "address": "yaseen saheb street, barrcks, Achari St, VRC Centre, Nellore, Andhra Pradesh 524003, India",
    "website": "N/A",
    "type": "Apartment building",
    "hours": "N/A",
    "thumbnail": "https://streetviewpixels-pa.googleapis.com/v1/thumbnail?panoid=idlERpSPO8-_agLQTlf4qQ&cb_client=search.gws-prod.gps&w=80&h=92&yaw=352.85168&pitch=0&thumbfov=100",
    "gps_coordinates": {
      "latitude": 14.448578999999999,
      "longitude": 79.9797169
    },
    "description": "N/A",
    "service_options": "N/A"
  },
  {
    "name": "Ayyala Reddy Apartments",
    "rating": 3,
    "reviews": 4,
    "phone": "N/A",
    "address": "CXXW+MJC, Padmavati Nagar, Balaji Nagar, Nellore, Andhra Pradesh 524002, India",
    "website": "N/A",
    "type": "Apartment building",
    "hours": "N/A",
    "thumbnail": "https://streetviewpixels-pa.googleapis.com/v1/thumbnail?panoid=g1oO6vvB9N09G3rDQhJgnQ&cb_client=search.gws-prod.gps&w=80&h=92&yaw=200.73308&pitch=0&thumbfov=100",
    "gps_coordinates": {
      "latitude": 14.4491824,
      "longitude": 79.9965017
    },
    "description": "N/A",
    "service_options": "N/A"
  },
  {
    "name": "Siddivinayaka apartments",
    "rating": 5,
    "reviews": 4,
    "phone": "N/A",
    "address": "CXMG+832, Unnamed Road, Central Avenue, Magunta Layout, Nellore, Andhra Pradesh 524003, India",
    "website": "N/A",
    "type": "Apartment building",
    "hours": "N/A",
    "thumbnail": "https://streetviewpixels-pa.googleapis.com/v1/thumbnail?panoid=RuOysa2ROJwpbxSKfufZTQ&cb_client=search.gws-prod.gps&w=80&h=92&yaw=111.4502&pitch=0&thumbfov=100",
    "gps_coordinates": {
      "latitude": 14.4332639,
      "longitude": 79.97513219999999
    },
    "description": "N/A",
    "service_options": "N/A"
  },
  {
    "name": "Chamundeshwari Apartment",
    "rating": 3,
    "reviews": 1,
    "phone": "N/A",
    "address": "CXGC+MM, Ravindra Nagar, Nellore, Andhra Pradesh 524004, India",
    "website": "N/A",
    "type": "Apartment building",
    "hours": "N/A",
    "thumbnail": "https://streetviewpixels-pa.googleapis.com/v1/thumbnail?panoid=apvMxOzERZg2tIKvO5aFKg&cb_client=search.gws-prod.gps&w=80&h=92&yaw=326.9465&pitch=0&thumbfov=100",
    "gps_coordinates": {
      "latitude": 14.4267316,
      "longitude": 79.9716718
    },
    "description": "N/A",
    "service_options": "N/A"
  },
  {
    "name": "M C Homes Apartments",
    "rating": 5,
    "reviews": 1,
    "phone": "N/A",
    "address": "CXPF+FC9, Sahithi Estate Rd, Saraswathi Nagar, Ambedkar Nagar, Nellore, Andhra Pradesh 524003, India",
    "website": "N/A",
    "type": "Apartment building",
    "hours": "N/A",
    "thumbnail": "https://streetviewpixels-pa.googleapis.com/v1/thumbnail?panoid=7TBRegRxmCp74KRVfBJHSQ&cb_client=search.gws-prod.gps&w=80&h=92&yaw=219.47623&pitch=0&thumbfov=100",
    "gps_coordinates": {
      "latitude": 14.4361719,
      "longitude": 79.973618
    },
    "description": "N/A",
    "service_options": "N/A"
  },
  {
    "name": "Mini Apartments",
    "rating": 5,
    "reviews": 1,
    "phone": "N/A",
    "address": "CXJJ+PMG, Unnamed Road, Guduru BhaskaraRami Reddy Layout, Nellore, Andhra Pradesh 524003, India",
    "website": "N/A",
    "type": "Apartment building",
    "hours": "N/A",
    "thumbnail": "https://lh3.googleusercontent.com/gps-cs-s/AG0ilSzBOa9ekkawBRJOqedUpsiQYYw3RrVgL3fYTt5Hn6noVHWsFmRxjFSZYIz03PSHxREGKn5VgpDYN4iwQMFGv84Zh8RU9Jry7kC2ILtr6KhmiqeRZ9qozhdfKVif698qdI0RxhnzMA=w122-h92-k-no",
    "gps_coordinates": {
      "latitude": 14.431816399999999,
      "longitude": 79.98170789999999
    },
    "description": "N/A",
    "service_options": "N/A"
  },
  {
    "name": "Sri Villa apartment",
    "rating": 4,
    "reviews": 4,
    "phone": "N/A",
    "address": "FX4V+5PQ, Usman Saheb Pet Rd, Stonehouse Pet, Nellore, Andhra Pradesh 524002, India",
    "website": "N/A",
    "type": "Apartment building",
    "hours": "N/A",
    "thumbnail": "https://streetviewpixels-pa.googleapis.com/v1/thumbnail?panoid=TBLzpNTdNfRDpq0BlrCdHA&cb_client=search.gws-prod.gps&w=80&h=92&yaw=268.68832&pitch=0&thumbfov=100",
    "gps_coordinates": {
      "latitude": 14.4554539,
      "longitude": 79.9943693
    },
    "description": "N/A",
    "service_options": "N/A"
  },
  {
    "name": "PVR Enclave",
    "rating": 5,
    "reviews": 8,
    "phone": "N/A",
    "address": "2nd Street , Srinivasa Nagar Mypadu gate centre, Andhra Pradesh 524002, India",
    "website": "N/A",
    "type": "Apartment building",
    "hours": "N/A",
    "thumbnail": "https://lh3.googleusercontent.com/gps-cs-s/AG0ilSywIGzvpdxbxVyYBYyN_zOHuL0Fud09Oc7-woLHSQGC7KbCN3bA5jF1xBq93IG3G4G8LxsYE8fD0f22FbuV8CYelFamFXAHwM-6ZaS3Zc84mrX0bigJg73JVFZSXGz6mTQzbnvY=w80-h106-k-no",
    "gps_coordinates": {
      "latitude": 14.465175499999999,
      "longitude": 80.0005578
    },
    "description": "N/A",
    "service_options": "N/A"
  },
  {
    "name": "Green Tree",
    "rating": 5,
    "reviews": 1,
    "phone": "N/A",
    "address": "CXH9+HCP, Sujathamma Colony, Dargamitta, Nellore, Andhra Pradesh 524003, India",
    "website": "N/A",
    "type": "Apartment building",
    "hours": "N/A",
    "thumbnail": "https://streetviewpixels-pa.googleapis.com/v1/thumbnail?panoid=b6l7X9qd9q3wi0snwsQxuA&cb_client=search.gws-prod.gps&w=80&h=92&yaw=343.13455&pitch=0&thumbfov=100",
    "gps_coordinates": {
      "latitude": 14.4289591,
      "longitude": 79.9685737
    },
    "description": "N/A",
    "service_options": "N/A"
  },
  {
    "name": "Shiva Apartment",
    "rating": 5,
    "reviews": 1,
    "phone": "N/A",
    "address": "16-13-416, Rd Number 4, Lic Colony, Harinathpuram, Nellore, Andhra Pradesh 524003, India",
    "website": "N/A",
    "type": "Apartment building",
    "hours": "N/A",
    "thumbnail": "https://lh3.googleusercontent.com/gps-cs-s/AG0ilSyiqRHROsXc-PLJ1kKz9XaKvOpGGFmqZlCSUgkTjUR2D3uIf7rYvFRYWb_Y9mjxW7147konQULjFrOrZAhb0lW5EMtwUYclekg_tJNLHLYH8gOe5WCV55DahpVvmMQR5CNHuzUrDw=w80-h106-k-no",
    "gps_coordinates": {
      "latitude": 14.4344336,
      "longitude": 79.9923732
    },
    "description": "N/A",
    "service_options": "N/A"
  }
]